places = [{"placeName":"Matcha Bar","descrip":"matcha teas, lattes & treats","latitude":40.7237559,"longitude":-73.9991249},
{"placeName":"Catch NYC","descrip":"upscale seafood restaurant ","latitude":40.7402272,"longitude":-74.008529},
{"placeName":"Cha Cha Matcha","descrip":"matcha teas, lattes & treats","latitude":40.7445784,"longitude":-73.9908892},
{"placeName":"The Butcher's Daughter","descrip":"brunch","latitude":40.7207138,"longitude":-73.9969933},
{"placeName":"by Chloe","descrip":"all-vegan restaurant, quick eats","latitude":40.7227744,"longitude":-73.9994012},
{"placeName":"The Smith","descrip":"American food","latitude":40.755202,"longitude":-73.9701757},
{"placeName":"Rosa Mexicano ","descrip":"fresh-to-table mexican food","latitude":40.7589658,"longitude":-73.9648926},
{"placeName":"Artichoke Pizza","descrip":"pizza","latitude":40.7440813,"longitude":-74.0087865},
{"placeName":"Jack's Wife Freida","descrip":"brunch","latitude":40.7298168,"longitude":-74.0057047},
{"placeName":"Cava","descrip":"greek food","latitude":40.7337898,"longitude":-73.9917966},
{"placeName":"TAO Downtown","descrip":"upscale asian restaurant","latitude":40.7423985,"longitude":-74.006295},
{"placeName":"Chelsea Market","descrip":"market with over 10 food and dessert options","latitude":40.7425291,"longitude":-74.0083108},
{"placeName":"Big Gay Ice Cream Shop","descrip":"ice cream shop","latitude":40.733262,"longitude":-74.0054363},
{"placeName":"Milk & Cream Cereal Bar","descrip":"ice cream shop","latitude":40.7195552,"longitude":-73.9985934},
{"placeName":"Carmine's ","descrip":"Italian restaurant","latitude":40.7298646,"longitude":-74.00616},
{"placeName":"Ivan Ramen","descrip":"ramen noodle restaurant","latitude":40.7205319,"longitude":-73.9867533},
{"placeName":"The Little Beet","descrip":"healthy eats","latitude":40.74111,"longitude":-73.987533},
{"placeName":"Hu Kitchen","descrip":"healthy eats","latitude":40.735701,"longitude":-73.9962177},
{"placeName":"Pizza Beach","descrip":"pizza","latitude":40.7213156,"longitude":-73.9909538},
{"placeName":"Dig Inn","descrip":"healthy quick eats","latitude":40.7237559,"longitude":-73.9991249}]
